[
  {"iata":"NRT","icao":"RJAA","name":"Narita International Airport","city":"Tokyo","country":"JP","lat":35.7647,"lon":140.3864,"elev":141,"type":"large"},
  {"iata":"HND","icao":"RJTT","name":"Haneda Airport","city":"Tokyo","country":"JP","lat":35.5494,"lon":139.7798,"elev":21,"type":"large"},
  {"iata":"KIX","icao":"RJBB","name":"Kansai International Airport","city":"Osaka","country":"JP","lat":34.4272,"lon":135.2440,"elev":26,"type":"large"},
  {"iata":"ITM","icao":"RJOO","name":"Osaka Itami Airport","city":"Osaka","country":"JP","lat":34.7855,"lon":135.4380,"elev":50,"type":"large"},
  {"iata":"CTS","icao":"RJCC","name":"New Chitose Airport","city":"Sapporo","country":"JP","lat":42.7752,"lon":141.6923,"elev":82,"type":"large"},
  {"iata":"FUK","icao":"RJFF","name":"Fukuoka Airport","city":"Fukuoka","country":"JP","lat":33.5859,"lon":130.4511,"elev":32,"type":"large"},
  {"iata":"OKA","icao":"ROAH","name":"Naha Airport","city":"Naha","country":"JP","lat":26.1958,"lon":127.6464,"elev":13,"type":"large"},
  {"iata":"NGO","icao":"RJGG","name":"Chubu Centrair International Airport","city":"Nagoya","country":"JP","lat":34.8583,"lon":136.8050,"elev":15,"type":"large"},
  {"iata":"HIJ","icao":"RJOA","name":"Hiroshima Airport","city":"Hiroshima","country":"JP","lat":34.4361,"lon":132.9194,"elev":1088,"type":"medium"},
  {"iata":"SDJ","icao":"RJSS","name":"Sendai Airport","city":"Sendai","country":"JP","lat":38.1397,"lon":140.9172,"elev":15,"type":"medium"},
  {"iata":"PEK","icao":"ZBAA","name":"Beijing Capital International Airport","city":"Beijing","country":"CN","lat":40.0799,"lon":116.6031,"elev":115,"type":"large"},
  {"iata":"PKX","icao":"ZBAD","name":"Beijing Daxing International Airport","city":"Beijing","country":"CN","lat":39.5098,"lon":116.4105,"elev":26,"type":"large"},
  {"iata":"PVG","icao":"ZSPD","name":"Shanghai Pudong International Airport","city":"Shanghai","country":"CN","lat":31.1434,"lon":121.8052,"elev":13,"type":"large"},
  {"iata":"SHA","icao":"ZSSS","name":"Shanghai Hongqiao International Airport","city":"Shanghai","country":"CN","lat":31.1979,"lon":121.3360,"elev":10,"type":"large"},
  {"iata":"CAN","icao":"ZGGG","name":"Guangzhou Baiyun International Airport","city":"Guangzhou","country":"CN","lat":23.3924,"lon":113.2990,"elev":50,"type":"large"},
  {"iata":"CTU","icao":"ZUUU","name":"Chengdu Tianfu International Airport","city":"Chengdu","country":"CN","lat":30.3124,"lon":104.4441,"elev":1784,"type":"large"},
  {"iata":"WUH","icao":"ZHHH","name":"Wuhan Tianhe International Airport","city":"Wuhan","country":"CN","lat":30.7838,"lon":114.2081,"elev":114,"type":"large"},
  {"iata":"SZX","icao":"ZGSZ","name":"Shenzhen Bao'an International Airport","city":"Shenzhen","country":"CN","lat":22.6393,"lon":113.8107,"elev":13,"type":"large"},
  {"iata":"XIY","icao":"ZLXY","name":"Xi'an Xianyang International Airport","city":"Xi'an","country":"CN","lat":34.4471,"lon":108.7516,"elev":1572,"type":"large"},
  {"iata":"KMG","icao":"ZPPP","name":"Kunming Changshui International Airport","city":"Kunming","country":"CN","lat":24.9920,"lon":102.7443,"elev":6904,"type":"large"},
  {"iata":"HGH","icao":"ZSHC","name":"Hangzhou Xiaoshan International Airport","city":"Hangzhou","country":"CN","lat":30.2295,"lon":120.4344,"elev":23,"type":"large"},
  {"iata":"NKG","icao":"ZSNJ","name":"Nanjing Lukou International Airport","city":"Nanjing","country":"CN","lat":31.7420,"lon":118.8620,"elev":49,"type":"large"},
  {"iata":"TSN","icao":"ZBTJ","name":"Tianjin Binhai International Airport","city":"Tianjin","country":"CN","lat":39.1244,"lon":117.3460,"elev":10,"type":"large"},
  {"iata":"CGQ","icao":"ZYCC","name":"Changchun Longjia International Airport","city":"Changchun","country":"CN","lat":43.9962,"lon":125.6845,"elev":754,"type":"large"},
  {"iata":"HRB","icao":"ZYHB","name":"Harbin Taiping International Airport","city":"Harbin","country":"CN","lat":45.6234,"lon":126.2500,"elev":457,"type":"large"},
  {"iata":"ICN","icao":"RKSI","name":"Incheon International Airport","city":"Seoul","country":"KR","lat":37.4692,"lon":126.4505,"elev":23,"type":"large"},
  {"iata":"GMP","icao":"RKSS","name":"Gimpo International Airport","city":"Seoul","country":"KR","lat":37.5583,"lon":126.7906,"elev":59,"type":"large"},
  {"iata":"PUS","icao":"RKPK","name":"Gimhae International Airport","city":"Busan","country":"KR","lat":35.1795,"lon":128.9383,"elev":6,"type":"large"},
  {"iata":"CJU","icao":"RKPC","name":"Jeju International Airport","city":"Jeju City","country":"KR","lat":33.5113,"lon":126.4930,"elev":118,"type":"large"},
  {"iata":"TPE","icao":"RCTP","name":"Taiwan Taoyuan International Airport","city":"Taipei","country":"TW","lat":25.0777,"lon":121.2330,"elev":106,"type":"large"},
  {"iata":"TSA","icao":"RCSS","name":"Taipei Songshan Airport","city":"Taipei","country":"TW","lat":25.0694,"lon":121.5526,"elev":18,"type":"medium"},
  {"iata":"KHH","icao":"RCKH","name":"Kaohsiung International Airport","city":"Kaohsiung","country":"TW","lat":22.5771,"lon":120.3500,"elev":31,"type":"large"},
  {"iata":"HKG","icao":"VHHH","name":"Hong Kong International Airport","city":"Hong Kong","country":"HK","lat":22.3089,"lon":113.9145,"elev":28,"type":"large"},
  {"iata":"MFM","icao":"VMMC","name":"Macau International Airport","city":"Macau","country":"MO","lat":22.1496,"lon":113.5920,"elev":20,"type":"medium"},
  {"iata":"SIN","icao":"WSSS","name":"Singapore Changi Airport","city":"Singapore","country":"SG","lat":1.3644,"lon":103.9915,"elev":22,"type":"large"},
  {"iata":"KUL","icao":"WMKK","name":"Kuala Lumpur International Airport","city":"Kuala Lumpur","country":"MY","lat":2.7456,"lon":101.7100,"elev":69,"type":"large"},
  {"iata":"BKK","icao":"VTBS","name":"Suvarnabhumi Airport","city":"Bangkok","country":"TH","lat":13.6811,"lon":100.7475,"elev":5,"type":"large"},
  {"iata":"DMK","icao":"VTBD","name":"Don Mueang International Airport","city":"Bangkok","country":"TH","lat":13.9126,"lon":100.6067,"elev":9,"type":"large"},
  {"iata":"CGK","icao":"WIII","name":"Soekarno-Hatta International Airport","city":"Jakarta","country":"ID","lat":-6.1256,"lon":106.6559,"elev":34,"type":"large"},
  {"iata":"DPS","icao":"WADD","name":"Ngurah Rai International Airport","city":"Bali","country":"ID","lat":-8.7482,"lon":115.1670,"elev":14,"type":"large"},
  {"iata":"MNL","icao":"RPLL","name":"Ninoy Aquino International Airport","city":"Manila","country":"PH","lat":14.5086,"lon":121.0197,"elev":75,"type":"large"},
  {"iata":"SGN","icao":"VVTS","name":"Tan Son Nhat International Airport","city":"Ho Chi Minh City","country":"VN","lat":10.8188,"lon":106.6520,"elev":33,"type":"large"},
  {"iata":"HAN","icao":"VVNB","name":"Noi Bai International Airport","city":"Hanoi","country":"VN","lat":21.2212,"lon":105.8072,"elev":39,"type":"large"},
  {"iata":"RGN","icao":"VYYY","name":"Yangon International Airport","city":"Yangon","country":"MM","lat":16.9073,"lon":96.1332,"elev":109,"type":"large"},
  {"iata":"PNH","icao":"VDPP","name":"Phnom Penh International Airport","city":"Phnom Penh","country":"KH","lat":11.5466,"lon":104.8440,"elev":40,"type":"large"},
  {"iata":"VTE","icao":"VLVT","name":"Vientiane Wattay International Airport","city":"Vientiane","country":"LA","lat":17.9883,"lon":102.5633,"elev":564,"type":"medium"},
  {"iata":"DEL","icao":"VIDP","name":"Indira Gandhi International Airport","city":"Delhi","country":"IN","lat":28.5665,"lon":77.1031,"elev":777,"type":"large"},
  {"iata":"BOM","icao":"VABB","name":"Chhatrapati Shivaji Maharaj International Airport","city":"Mumbai","country":"IN","lat":19.0896,"lon":72.8656,"elev":37,"type":"large"},
  {"iata":"MAA","icao":"VOMM","name":"Chennai International Airport","city":"Chennai","country":"IN","lat":12.9900,"lon":80.1693,"elev":52,"type":"large"},
  {"iata":"BLR","icao":"VOBL","name":"Kempegowda International Airport","city":"Bangalore","country":"IN","lat":13.1979,"lon":77.7063,"elev":3000,"type":"large"},
  {"iata":"HYD","icao":"VOHS","name":"Rajiv Gandhi International Airport","city":"Hyderabad","country":"IN","lat":17.2313,"lon":78.4298,"elev":2024,"type":"large"},
  {"iata":"CCU","icao":"VECC","name":"Netaji Subhas Chandra Bose International Airport","city":"Kolkata","country":"IN","lat":22.6520,"lon":88.4467,"elev":19,"type":"large"},
  {"iata":"CMB","icao":"VCBI","name":"Bandaranaike International Airport","city":"Colombo","country":"LK","lat":7.1808,"lon":79.8841,"elev":30,"type":"large"},
  {"iata":"DAC","icao":"VGHS","name":"Hazrat Shahjalal International Airport","city":"Dhaka","country":"BD","lat":23.8433,"lon":90.3978,"elev":30,"type":"large"},
  {"iata":"KTM","icao":"VNKT","name":"Tribhuvan International Airport","city":"Kathmandu","country":"NP","lat":27.6966,"lon":85.3591,"elev":4390,"type":"large"},
  {"iata":"KHI","icao":"OPKC","name":"Jinnah International Airport","city":"Karachi","country":"PK","lat":24.9065,"lon":67.1608,"elev":100,"type":"large"},
  {"iata":"LHE","icao":"OPLA","name":"Allama Iqbal International Airport","city":"Lahore","country":"PK","lat":31.5216,"lon":74.4036,"elev":712,"type":"large"},
  {"iata":"ISB","icao":"OPRN","name":"Islamabad International Airport","city":"Islamabad","country":"PK","lat":33.5490,"lon":72.8266,"elev":1668,"type":"large"},
  {"iata":"DXB","icao":"OMDB","name":"Dubai International Airport","city":"Dubai","country":"AE","lat":25.2528,"lon":55.3644,"elev":62,"type":"large"},
  {"iata":"AUH","icao":"OMAA","name":"Abu Dhabi International Airport","city":"Abu Dhabi","country":"AE","lat":24.4330,"lon":54.6511,"elev":88,"type":"large"},
  {"iata":"SHJ","icao":"OMSJ","name":"Sharjah International Airport","city":"Sharjah","country":"AE","lat":25.3286,"lon":55.5172,"elev":111,"type":"large"},
  {"iata":"DOH","icao":"OTHH","name":"Hamad International Airport","city":"Doha","country":"QA","lat":25.2731,"lon":51.6081,"elev":13,"type":"large"},
  {"iata":"BAH","icao":"OBBI","name":"Bahrain International Airport","city":"Manama","country":"BH","lat":26.2708,"lon":50.6336,"elev":6,"type":"large"},
  {"iata":"KWI","icao":"OKBK","name":"Kuwait International Airport","city":"Kuwait City","country":"KW","lat":29.2267,"lon":47.9689,"elev":206,"type":"large"},
  {"iata":"MCT","icao":"OOMS","name":"Muscat International Airport","city":"Muscat","country":"OM","lat":23.5933,"lon":58.2844,"elev":48,"type":"large"},
  {"iata":"RUH","icao":"OERK","name":"King Khalid International Airport","city":"Riyadh","country":"SA","lat":24.9576,"lon":46.6988,"elev":2049,"type":"large"},
  {"iata":"JED","icao":"OEJN","name":"King Abdulaziz International Airport","city":"Jeddah","country":"SA","lat":21.6796,"lon":39.1565,"elev":48,"type":"large"},
  {"iata":"MED","icao":"OEMA","name":"Prince Mohammad Bin Abdulaziz International Airport","city":"Medina","country":"SA","lat":24.5534,"lon":39.7051,"elev":2151,"type":"large"},
  {"iata":"AMM","icao":"OJAI","name":"Queen Alia International Airport","city":"Amman","country":"JO","lat":31.7226,"lon":35.9932,"elev":2395,"type":"large"},
  {"iata":"BEY","icao":"OLBA","name":"Beirut Rafic Hariri International Airport","city":"Beirut","country":"LB","lat":33.8209,"lon":35.4884,"elev":87,"type":"large"},
  {"iata":"TLV","icao":"LLBG","name":"Ben Gurion International Airport","city":"Tel Aviv","country":"IL","lat":32.0114,"lon":34.8867,"elev":135,"type":"large"},
  {"iata":"BGW","icao":"ORBI","name":"Baghdad International Airport","city":"Baghdad","country":"IQ","lat":33.2626,"lon":44.2346,"elev":114,"type":"large"},
  {"iata":"THR","icao":"OIII","name":"Mehrabad International Airport","city":"Tehran","country":"IR","lat":35.6892,"lon":51.3144,"elev":3962,"type":"large"},
  {"iata":"IKA","icao":"OIIE","name":"Tehran Imam Khomeini International Airport","city":"Tehran","country":"IR","lat":35.4161,"lon":51.1522,"elev":3305,"type":"large"},
  {"iata":"IST","icao":"LTFM","name":"Istanbul Airport","city":"Istanbul","country":"TR","lat":41.2753,"lon":28.7519,"elev":325,"type":"large"},
  {"iata":"SAW","icao":"LTFJ","name":"Istanbul Sabiha Gokcen International Airport","city":"Istanbul","country":"TR","lat":40.8986,"lon":29.3092,"elev":312,"type":"large"},
  {"iata":"ESB","icao":"LTAC","name":"Esenboga International Airport","city":"Ankara","country":"TR","lat":40.1281,"lon":32.9951,"elev":3128,"type":"large"},
  {"iata":"AYT","icao":"LTAI","name":"Antalya Airport","city":"Antalya","country":"TR","lat":36.8987,"lon":30.8005,"elev":177,"type":"large"},
  {"iata":"ATH","icao":"LGAV","name":"Athens Eleftherios Venizelos International Airport","city":"Athens","country":"GR","lat":37.9364,"lon":23.9445,"elev":308,"type":"large"},
  {"iata":"SKG","icao":"LGTS","name":"Thessaloniki Macedonia International Airport","city":"Thessaloniki","country":"GR","lat":40.5197,"lon":22.9709,"elev":22,"type":"large"},
  {"iata":"LHR","icao":"EGLL","name":"London Heathrow Airport","city":"London","country":"GB","lat":51.4775,"lon":-0.4614,"elev":83,"type":"large"},
  {"iata":"LGW","icao":"EGKK","name":"London Gatwick Airport","city":"London","country":"GB","lat":51.1481,"lon":-0.1903,"elev":202,"type":"large"},
  {"iata":"STN","icao":"EGSS","name":"London Stansted Airport","city":"London","country":"GB","lat":51.8850,"lon":0.2350,"elev":348,"type":"large"},
  {"iata":"LTN","icao":"EGGW","name":"London Luton Airport","city":"London","country":"GB","lat":51.8747,"lon":-0.3683,"elev":526,"type":"large"},
  {"iata":"MAN","icao":"EGCC","name":"Manchester Airport","city":"Manchester","country":"GB","lat":53.3537,"lon":-2.2750,"elev":257,"type":"large"},
  {"iata":"BHX","icao":"EGBB","name":"Birmingham Airport","city":"Birmingham","country":"GB","lat":52.4539,"lon":-1.7480,"elev":327,"type":"large"},
  {"iata":"EDI","icao":"EGPH","name":"Edinburgh Airport","city":"Edinburgh","country":"GB","lat":55.9500,"lon":-3.3725,"elev":135,"type":"large"},
  {"iata":"GLA","icao":"EGPF","name":"Glasgow Airport","city":"Glasgow","country":"GB","lat":55.8719,"lon":-4.4330,"elev":26,"type":"large"},
  {"iata":"CDG","icao":"LFPG","name":"Paris Charles de Gaulle Airport","city":"Paris","country":"FR","lat":49.0097,"lon":2.5479,"elev":392,"type":"large"},
  {"iata":"ORY","icao":"LFPO","name":"Paris Orly Airport","city":"Paris","country":"FR","lat":48.7233,"lon":2.3794,"elev":292,"type":"large"},
  {"iata":"NCE","icao":"LFMN","name":"Nice Cote d'Azur Airport","city":"Nice","country":"FR","lat":43.6584,"lon":7.2159,"elev":12,"type":"large"},
  {"iata":"LYS","icao":"LFLL","name":"Lyon Saint-Exupery Airport","city":"Lyon","country":"FR","lat":45.7256,"lon":5.0811,"elev":821,"type":"large"},
  {"iata":"MRS","icao":"LFML","name":"Marseille Provence Airport","city":"Marseille","country":"FR","lat":43.4393,"lon":5.2214,"elev":74,"type":"large"},
  {"iata":"FRA","icao":"EDDF","name":"Frankfurt Airport","city":"Frankfurt","country":"DE","lat":50.0333,"lon":8.5706,"elev":364,"type":"large"},
  {"iata":"MUC","icao":"EDDM","name":"Munich Airport","city":"Munich","country":"DE","lat":48.3538,"lon":11.7861,"elev":1487,"type":"large"},
  {"iata":"TXL","icao":"EDDT","name":"Berlin Tegel Airport","city":"Berlin","country":"DE","lat":52.5597,"lon":13.2877,"elev":122,"type":"large"},
  {"iata":"BER","icao":"EDDB","name":"Berlin Brandenburg Airport","city":"Berlin","country":"DE","lat":52.3667,"lon":13.5033,"elev":157,"type":"large"},
  {"iata":"DUS","icao":"EDDL","name":"Dusseldorf Airport","city":"Dusseldorf","country":"DE","lat":51.2895,"lon":6.7668,"elev":147,"type":"large"},
  {"iata":"HAM","icao":"EDDH","name":"Hamburg Airport","city":"Hamburg","country":"DE","lat":53.6304,"lon":9.9882,"elev":53,"type":"large"},
  {"iata":"STR","icao":"EDDS","name":"Stuttgart Airport","city":"Stuttgart","country":"DE","lat":48.6899,"lon":9.2220,"elev":1300,"type":"large"},
  {"iata":"CGN","icao":"EDDK","name":"Cologne Bonn Airport","city":"Cologne","country":"DE","lat":50.8659,"lon":7.1427,"elev":302,"type":"large"},
  {"iata":"NUE","icao":"EDDN","name":"Nuremberg Airport","city":"Nuremberg","country":"DE","lat":49.4987,"lon":11.0669,"elev":1046,"type":"large"},
  {"iata":"AMS","icao":"EHAM","name":"Amsterdam Schiphol Airport","city":"Amsterdam","country":"NL","lat":52.3086,"lon":4.7639,"elev":-11,"type":"large"},
  {"iata":"BRU","icao":"EBBR","name":"Brussels Airport","city":"Brussels","country":"BE","lat":50.9014,"lon":4.4844,"elev":184,"type":"large"},
  {"iata":"ZRH","icao":"LSZH","name":"Zurich Airport","city":"Zurich","country":"CH","lat":47.4647,"lon":8.5492,"elev":1416,"type":"large"},
  {"iata":"GVA","icao":"LSGG","name":"Geneva Airport","city":"Geneva","country":"CH","lat":46.2380,"lon":6.1089,"elev":1411,"type":"large"},
  {"iata":"VIE","icao":"LOWW","name":"Vienna International Airport","city":"Vienna","country":"AT","lat":48.1103,"lon":16.5697,"elev":600,"type":"large"},
  {"iata":"PRG","icao":"LKPR","name":"Vaclav Havel Airport Prague","city":"Prague","country":"CZ","lat":50.1008,"lon":14.2600,"elev":1247,"type":"large"},
  {"iata":"BUD","icao":"LHBP","name":"Budapest Ferenc Liszt International Airport","city":"Budapest","country":"HU","lat":47.4369,"lon":19.2556,"elev":495,"type":"large"},
  {"iata":"WAW","icao":"EPWA","name":"Warsaw Chopin Airport","city":"Warsaw","country":"PL","lat":52.1657,"lon":20.9671,"elev":361,"type":"large"},
  {"iata":"KRK","icao":"EPKK","name":"John Paul II International Airport Krakow-Balice","city":"Krakow","country":"PL","lat":50.0777,"lon":19.7848,"elev":791,"type":"large"},
  {"iata":"OSL","icao":"ENGM","name":"Oslo Gardermoen Airport","city":"Oslo","country":"NO","lat":60.1939,"lon":11.1004,"elev":681,"type":"large"},
  {"iata":"ARN","icao":"ESSA","name":"Stockholm Arlanda Airport","city":"Stockholm","country":"SE","lat":59.6519,"lon":17.9186,"elev":137,"type":"large"},
  {"iata":"CPH","icao":"EKCH","name":"Copenhagen Airport","city":"Copenhagen","country":"DK","lat":55.6179,"lon":12.6561,"elev":17,"type":"large"},
  {"iata":"HEL","icao":"EFHK","name":"Helsinki-Vantaa Airport","city":"Helsinki","country":"FI","lat":60.3172,"lon":24.9633,"elev":179,"type":"large"},
  {"iata":"RVN","icao":"EFRO","name":"Rovaniemi Airport","city":"Rovaniemi","country":"FI","lat":66.5648,"lon":25.8304,"elev":642,"type":"medium"},
  {"iata":"FCO","icao":"LIRF","name":"Leonardo da Vinci International Airport","city":"Rome","country":"IT","lat":41.7999,"lon":12.2462,"elev":14,"type":"large"},
  {"iata":"MXP","icao":"LIMC","name":"Milan Malpensa Airport","city":"Milan","country":"IT","lat":45.6306,"lon":8.7281,"elev":768,"type":"large"},
  {"iata":"LIN","icao":"LIML","name":"Milan Linate Airport","city":"Milan","country":"IT","lat":45.4454,"lon":9.2767,"elev":353,"type":"large"},
  {"iata":"VCE","icao":"LIPZ","name":"Venice Marco Polo Airport","city":"Venice","country":"IT","lat":45.5053,"lon":12.3519,"elev":7,"type":"large"},
  {"iata":"BCN","icao":"LEBL","name":"Barcelona El Prat Airport","city":"Barcelona","country":"ES","lat":41.2971,"lon":2.0785,"elev":12,"type":"large"},
  {"iata":"MAD","icao":"LEMD","name":"Madrid Barajas Airport","city":"Madrid","country":"ES","lat":40.4719,"lon":-3.5622,"elev":2000,"type":"large"},
  {"iata":"PMI","icao":"LEPA","name":"Palma de Mallorca Airport","city":"Palma","country":"ES","lat":39.5517,"lon":2.7388,"elev":27,"type":"large"},
  {"iata":"AGP","icao":"LEMG","name":"Malaga Costa del Sol Airport","city":"Malaga","country":"ES","lat":36.6749,"lon":-4.4991,"elev":52,"type":"large"},
  {"iata":"LIS","icao":"LPPT","name":"Lisbon Humberto Delgado Airport","city":"Lisbon","country":"PT","lat":38.7813,"lon":-9.1359,"elev":374,"type":"large"},
  {"iata":"OPO","icao":"LPPR","name":"Francisco de Sa Carneiro Airport","city":"Porto","country":"PT","lat":41.2481,"lon":-8.6814,"elev":228,"type":"large"},
  {"iata":"SVO","icao":"UUEE","name":"Sheremetyevo International Airport","city":"Moscow","country":"RU","lat":55.9726,"lon":37.4146,"elev":630,"type":"large"},
  {"iata":"DME","icao":"UUDD","name":"Domodedovo International Airport","city":"Moscow","country":"RU","lat":55.4088,"lon":37.9063,"elev":588,"type":"large"},
  {"iata":"VKO","icao":"UUWW","name":"Vnukovo International Airport","city":"Moscow","country":"RU","lat":55.5915,"lon":37.2615,"elev":685,"type":"large"},
  {"iata":"LED","icao":"ULLI","name":"Pulkovo Airport","city":"Saint Petersburg","country":"RU","lat":59.8003,"lon":30.2625,"elev":78,"type":"large"},
  {"iata":"SIP","icao":"UKFF","name":"Simferopol International Airport","city":"Simferopol","country":"UA","lat":45.0522,"lon":33.9751,"elev":639,"type":"large"},
  {"iata":"KBP","icao":"UKBB","name":"Boryspil International Airport","city":"Kyiv","country":"UA","lat":50.3450,"lon":30.8947,"elev":427,"type":"large"},
  {"iata":"GYD","icao":"UBBB","name":"Heydar Aliyev International Airport","city":"Baku","country":"AZ","lat":40.4675,"lon":50.0467,"elev":10,"type":"large"},
  {"iata":"TBS","icao":"UGTB","name":"Tbilisi International Airport","city":"Tbilisi","country":"GE","lat":41.6692,"lon":44.9547,"elev":1624,"type":"large"},
  {"iata":"EVN","icao":"UDYZ","name":"Zvartnots International Airport","city":"Yerevan","country":"AM","lat":40.1473,"lon":44.3960,"elev":2838,"type":"large"},
  {"iata":"ALA","icao":"UAAA","name":"Almaty International Airport","city":"Almaty","country":"KZ","lat":43.3521,"lon":77.0405,"elev":2234,"type":"large"},
  {"iata":"TSE","icao":"UACC","name":"Nursultan Nazarbayev International Airport","city":"Astana","country":"KZ","lat":51.0223,"lon":71.4669,"elev":1165,"type":"large"},
  {"iata":"TAS","icao":"UTTT","name":"Tashkent International Airport","city":"Tashkent","country":"UZ","lat":41.2579,"lon":69.2812,"elev":1417,"type":"large"},
  {"iata":"JFK","icao":"KJFK","name":"John F. Kennedy International Airport","city":"New York","country":"US","lat":40.6413,"lon":-73.7781,"elev":13,"type":"large"},
  {"iata":"EWR","icao":"KEWR","name":"Newark Liberty International Airport","city":"Newark","country":"US","lat":40.6925,"lon":-74.1687,"elev":18,"type":"large"},
  {"iata":"LGA","icao":"KLGA","name":"LaGuardia Airport","city":"New York","country":"US","lat":40.7772,"lon":-73.8726,"elev":21,"type":"large"},
  {"iata":"LAX","icao":"KLAX","name":"Los Angeles International Airport","city":"Los Angeles","country":"US","lat":33.9425,"lon":-118.4081,"elev":128,"type":"large"},
  {"iata":"ORD","icao":"KORD","name":"O'Hare International Airport","city":"Chicago","country":"US","lat":41.9742,"lon":-87.9073,"elev":680,"type":"large"},
  {"iata":"MDW","icao":"KMDW","name":"Chicago Midway International Airport","city":"Chicago","country":"US","lat":41.7860,"lon":-87.7424,"elev":620,"type":"large"},
  {"iata":"ATL","icao":"KATL","name":"Hartsfield-Jackson Atlanta International Airport","city":"Atlanta","country":"US","lat":33.6367,"lon":-84.4281,"elev":1026,"type":"large"},
  {"iata":"DFW","icao":"KDFW","name":"Dallas/Fort Worth International Airport","city":"Dallas","country":"US","lat":32.8998,"lon":-97.0403,"elev":607,"type":"large"},
  {"iata":"DEN","icao":"KDEN","name":"Denver International Airport","city":"Denver","country":"US","lat":39.8561,"lon":-104.6737,"elev":5431,"type":"large"},
  {"iata":"SFO","icao":"KSFO","name":"San Francisco International Airport","city":"San Francisco","country":"US","lat":37.6213,"lon":-122.3790,"elev":13,"type":"large"},
  {"iata":"SEA","icao":"KSEA","name":"Seattle-Tacoma International Airport","city":"Seattle","country":"US","lat":47.4502,"lon":-122.3088,"elev":433,"type":"large"},
  {"iata":"MIA","icao":"KMIA","name":"Miami International Airport","city":"Miami","country":"US","lat":25.7959,"lon":-80.2870,"elev":9,"type":"large"},
  {"iata":"BOS","icao":"KBOS","name":"Boston Logan International Airport","city":"Boston","country":"US","lat":42.3643,"lon":-71.0052,"elev":20,"type":"large"},
  {"iata":"PHL","icao":"KPHL","name":"Philadelphia International Airport","city":"Philadelphia","country":"US","lat":39.8719,"lon":-75.2411,"elev":36,"type":"large"},
  {"iata":"IAD","icao":"KIAD","name":"Washington Dulles International Airport","city":"Washington","country":"US","lat":38.9445,"lon":-77.4558,"elev":312,"type":"large"},
  {"iata":"DCA","icao":"KDCA","name":"Ronald Reagan Washington National Airport","city":"Washington","country":"US","lat":38.8521,"lon":-77.0377,"elev":15,"type":"large"},
  {"iata":"MSP","icao":"KMSP","name":"Minneapolis-Saint Paul International Airport","city":"Minneapolis","country":"US","lat":44.8820,"lon":-93.2218,"elev":841,"type":"large"},
  {"iata":"DTW","icao":"KDTW","name":"Detroit Metropolitan Wayne County Airport","city":"Detroit","country":"US","lat":42.2124,"lon":-83.3534,"elev":645,"type":"large"},
  {"iata":"CLT","icao":"KCLT","name":"Charlotte Douglas International Airport","city":"Charlotte","country":"US","lat":35.2140,"lon":-80.9431,"elev":748,"type":"large"},
  {"iata":"PHX","icao":"KPHX","name":"Phoenix Sky Harbor International Airport","city":"Phoenix","country":"US","lat":33.4373,"lon":-112.0078,"elev":1135,"type":"large"},
  {"iata":"IAH","icao":"KIAH","name":"George Bush Intercontinental Airport","city":"Houston","country":"US","lat":29.9844,"lon":-95.3414,"elev":97,"type":"large"},
  {"iata":"HOU","icao":"KHOU","name":"William P. Hobby Airport","city":"Houston","country":"US","lat":29.6454,"lon":-95.2789,"elev":46,"type":"large"},
  {"iata":"MCO","icao":"KMCO","name":"Orlando International Airport","city":"Orlando","country":"US","lat":28.4294,"lon":-81.3089,"elev":96,"type":"large"},
  {"iata":"LAS","icao":"KLAS","name":"Harry Reid International Airport","city":"Las Vegas","country":"US","lat":36.0840,"lon":-115.1537,"elev":2181,"type":"large"},
  {"iata":"SAN","icao":"KSAN","name":"San Diego International Airport","city":"San Diego","country":"US","lat":32.7336,"lon":-117.1896,"elev":17,"type":"large"},
  {"iata":"TPA","icao":"KTPA","name":"Tampa International Airport","city":"Tampa","country":"US","lat":27.9755,"lon":-82.5332,"elev":26,"type":"large"},
  {"iata":"SLC","icao":"KSLC","name":"Salt Lake City International Airport","city":"Salt Lake City","country":"US","lat":40.7884,"lon":-111.9778,"elev":4227,"type":"large"},
  {"iata":"PDX","icao":"KPDX","name":"Portland International Airport","city":"Portland","country":"US","lat":45.5887,"lon":-122.5975,"elev":31,"type":"large"},
  {"iata":"BNA","icao":"KBNA","name":"Nashville International Airport","city":"Nashville","country":"US","lat":36.1245,"lon":-86.6782,"elev":599,"type":"large"},
  {"iata":"STL","icao":"KSTL","name":"St. Louis Lambert International Airport","city":"St. Louis","country":"US","lat":38.7487,"lon":-90.3700,"elev":618,"type":"large"},
  {"iata":"ANC","icao":"PANC","name":"Ted Stevens Anchorage International Airport","city":"Anchorage","country":"US","lat":61.1744,"lon":-149.9964,"elev":152,"type":"large"},
  {"iata":"HNL","icao":"PHNL","name":"Daniel K. Inouye International Airport","city":"Honolulu","country":"US","lat":21.3187,"lon":-157.9224,"elev":13,"type":"large"},
  {"iata":"YYZ","icao":"CYYZ","name":"Toronto Pearson International Airport","city":"Toronto","country":"CA","lat":43.6777,"lon":-79.6248,"elev":569,"type":"large"},
  {"iata":"YVR","icao":"CYVR","name":"Vancouver International Airport","city":"Vancouver","country":"CA","lat":49.1947,"lon":-123.1792,"elev":14,"type":"large"},
  {"iata":"YUL","icao":"CYUL","name":"Montreal Pierre Elliott Trudeau International Airport","city":"Montreal","country":"CA","lat":45.4706,"lon":-73.7408,"elev":118,"type":"large"},
  {"iata":"YYC","icao":"CYYC","name":"Calgary International Airport","city":"Calgary","country":"CA","lat":51.1215,"lon":-114.0133,"elev":3557,"type":"large"},
  {"iata":"YEG","icao":"CYEG","name":"Edmonton International Airport","city":"Edmonton","country":"CA","lat":53.3097,"lon":-113.5800,"elev":2373,"type":"large"},
  {"iata":"YOW","icao":"CYOW","name":"Ottawa Macdonald-Cartier International Airport","city":"Ottawa","country":"CA","lat":45.3225,"lon":-75.6692,"elev":374,"type":"large"},
  {"iata":"MEX","icao":"MMMX","name":"Mexico City International Airport","city":"Mexico City","country":"MX","lat":19.4363,"lon":-99.0721,"elev":7316,"type":"large"},
  {"iata":"GDL","icao":"MMGL","name":"Miguel Hidalgo y Costilla International Airport","city":"Guadalajara","country":"MX","lat":20.5218,"lon":-103.3106,"elev":5016,"type":"large"},
  {"iata":"MTY","icao":"MMMY","name":"General Mariano Escobedo International Airport","city":"Monterrey","country":"MX","lat":25.7785,"lon":-100.1070,"elev":1278,"type":"large"},
  {"iata":"CUN","icao":"MMUN","name":"Cancun International Airport","city":"Cancun","country":"MX","lat":21.0365,"lon":-86.8771,"elev":22,"type":"large"},
  {"iata":"GRU","icao":"SBGR","name":"Guarulhos International Airport","city":"Sao Paulo","country":"BR","lat":-23.4356,"lon":-46.4731,"elev":2459,"type":"large"},
  {"iata":"CGH","icao":"SBSP","name":"Congonhas Airport","city":"Sao Paulo","country":"BR","lat":-23.6261,"lon":-46.6564,"elev":2631,"type":"large"},
  {"iata":"GIG","icao":"SBGL","name":"Rio de Janeiro Galeao International Airport","city":"Rio de Janeiro","country":"BR","lat":-22.8099,"lon":-43.2505,"elev":28,"type":"large"},
  {"iata":"BSB","icao":"SBBR","name":"Presidente Juscelino Kubitscheck International Airport","city":"Brasilia","country":"BR","lat":-15.8711,"lon":-47.9186,"elev":3479,"type":"large"},
  {"iata":"FOR","icao":"SBFZ","name":"Pinto Martins International Airport","city":"Fortaleza","country":"BR","lat":-3.7763,"lon":-38.5326,"elev":82,"type":"large"},
  {"iata":"REC","icao":"SBRF","name":"Guararapes International Airport","city":"Recife","country":"BR","lat":-8.1266,"lon":-34.9233,"elev":33,"type":"large"},
  {"iata":"EZE","icao":"SAEZ","name":"Ministro Pistarini International Airport","city":"Buenos Aires","country":"AR","lat":-34.8222,"lon":-58.5358,"elev":67,"type":"large"},
  {"iata":"AEP","icao":"SABE","name":"Jorge Newbery Airfield","city":"Buenos Aires","country":"AR","lat":-34.5592,"lon":-58.4156,"elev":18,"type":"large"},
  {"iata":"SCL","icao":"SCEL","name":"Comodoro Arturo Merino Benitez International Airport","city":"Santiago","country":"CL","lat":-33.3930,"lon":-70.7858,"elev":1555,"type":"large"},
  {"iata":"BOG","icao":"SKBO","name":"El Dorado International Airport","city":"Bogota","country":"CO","lat":4.7016,"lon":-74.1469,"elev":8361,"type":"large"},
  {"iata":"LIM","icao":"SPJC","name":"Jorge Chavez International Airport","city":"Lima","country":"PE","lat":-12.0219,"lon":-77.1143,"elev":113,"type":"large"},
  {"iata":"UIO","icao":"SEQM","name":"Mariscal Sucre International Airport","city":"Quito","country":"EC","lat":-0.1292,"lon":-78.3575,"elev":7841,"type":"large"},
  {"iata":"GYE","icao":"SEGU","name":"Jose Joaquin de Olmedo International Airport","city":"Guayaquil","country":"EC","lat":-2.1574,"lon":-79.8836,"elev":19,"type":"large"},
  {"iata":"CCS","icao":"SVMI","name":"Simon Bolivar International Airport","city":"Caracas","country":"VE","lat":10.6012,"lon":-66.9916,"elev":235,"type":"large"},
  {"iata":"JNB","icao":"FAOR","name":"O.R. Tambo International Airport","city":"Johannesburg","country":"ZA","lat":-26.1392,"lon":28.2460,"elev":5558,"type":"large"},
  {"iata":"CPT","icao":"FACT","name":"Cape Town International Airport","city":"Cape Town","country":"ZA","lat":-33.9649,"lon":18.6017,"elev":151,"type":"large"},
  {"iata":"DUR","icao":"FALE","name":"King Shaka International Airport","city":"Durban","country":"ZA","lat":-29.6144,"lon":31.1197,"elev":295,"type":"large"},
  {"iata":"CAI","icao":"HECA","name":"Cairo International Airport","city":"Cairo","country":"EG","lat":30.1219,"lon":31.4056,"elev":382,"type":"large"},
  {"iata":"HRG","icao":"HEGN","name":"Hurghada International Airport","city":"Hurghada","country":"EG","lat":27.1783,"lon":33.7994,"elev":52,"type":"large"},
  {"iata":"LXR","icao":"HELX","name":"Luxor International Airport","city":"Luxor","country":"EG","lat":25.6710,"lon":32.7066,"elev":294,"type":"large"},
  {"iata":"ADD","icao":"HAAB","name":"Addis Ababa Bole International Airport","city":"Addis Ababa","country":"ET","lat":8.9778,"lon":38.7993,"elev":7625,"type":"large"},
  {"iata":"NBO","icao":"HKJK","name":"Jomo Kenyatta International Airport","city":"Nairobi","country":"KE","lat":-1.3192,"lon":36.9275,"elev":5327,"type":"large"},
  {"iata":"DAR","icao":"HTDA","name":"Julius Nyerere International Airport","city":"Dar es Salaam","country":"TZ","lat":-6.8781,"lon":39.2026,"elev":182,"type":"large"},
  {"iata":"EBB","icao":"HUEN","name":"Entebbe International Airport","city":"Entebbe","country":"UG","lat":0.0424,"lon":32.4435,"elev":3782,"type":"large"},
  {"iata":"LOS","icao":"DNMM","name":"Murtala Muhammed International Airport","city":"Lagos","country":"NG","lat":6.5774,"lon":3.3212,"elev":135,"type":"large"},
  {"iata":"ABV","icao":"DNAA","name":"Nnamdi Azikiwe International Airport","city":"Abuja","country":"NG","lat":9.0068,"lon":7.2632,"elev":1123,"type":"large"},
  {"iata":"ACC","icao":"DGAA","name":"Kotoka International Airport","city":"Accra","country":"GH","lat":5.6052,"lon":-0.1668,"elev":205,"type":"large"},
  {"iata":"ABJ","icao":"DIAP","name":"Felix-Houphouet-Boigny International Airport","city":"Abidjan","country":"CI","lat":5.2614,"lon":-3.9263,"elev":21,"type":"large"},
  {"iata":"DKR","icao":"GOBD","name":"Blaise Diagne International Airport","city":"Dakar","country":"SN","lat":14.6700,"lon":-17.0733,"elev":89,"type":"large"},
  {"iata":"CMN","icao":"GMMN","name":"Mohammed V International Airport","city":"Casablanca","country":"MA","lat":33.3675,"lon":-7.5900,"elev":656,"type":"large"},
  {"iata":"RAK","icao":"GMMX","name":"Marrakech Menara Airport","city":"Marrakech","country":"MA","lat":31.6069,"lon":-8.0363,"elev":1545,"type":"large"},
  {"iata":"TUN","icao":"DTTA","name":"Tunis-Carthage International Airport","city":"Tunis","country":"TN","lat":36.8510,"lon":10.2272,"elev":22,"type":"large"},
  {"iata":"ALG","icao":"DAAG","name":"Houari Boumediene Airport","city":"Algiers","country":"DZ","lat":36.6910,"lon":3.2154,"elev":82,"type":"large"},
  {"iata":"TRN","icao":"LIMF","name":"Turin Airport","city":"Turin","country":"IT","lat":45.2008,"lon":7.6497,"elev":989,"type":"large"},
  {"iata":"BIO","icao":"LEBB","name":"Bilbao Airport","city":"Bilbao","country":"ES","lat":43.3011,"lon":-2.9106,"elev":138,"type":"large"},
  {"iata":"SVQ","icao":"LEZL","name":"Seville Airport","city":"Seville","country":"ES","lat":37.4180,"lon":-5.8931,"elev":112,"type":"large"},
  {"iata":"LPA","icao":"GCLP","name":"Gran Canaria Airport","city":"Las Palmas","country":"ES","lat":27.9319,"lon":-15.3866,"elev":78,"type":"large"},
  {"iata":"TFS","icao":"GCTS","name":"Tenerife South Airport","city":"Tenerife","country":"ES","lat":28.0445,"lon":-16.5725,"elev":209,"type":"large"},
  {"iata":"OTP","icao":"LROP","name":"Henri Coanda International Airport","city":"Bucharest","country":"RO","lat":44.5711,"lon":26.0858,"elev":314,"type":"large"},
  {"iata":"SOF","icao":"LBSF","name":"Sofia Airport","city":"Sofia","country":"BG","lat":42.6967,"lon":23.4114,"elev":1742,"type":"large"},
  {"iata":"ZAG","icao":"LDZA","name":"Zagreb Airport","city":"Zagreb","country":"HR","lat":45.7429,"lon":16.0688,"elev":353,"type":"large"},
  {"iata":"BEG","icao":"LYBE","name":"Belgrade Nikola Tesla Airport","city":"Belgrade","country":"RS","lat":44.8184,"lon":20.3091,"elev":335,"type":"large"},
  {"iata":"LJU","icao":"LJLJ","name":"Ljubljana Joze Pucnik Airport","city":"Ljubljana","country":"SI","lat":46.2237,"lon":14.4576,"elev":1273,"type":"large"},
  {"iata":"SKP","icao":"LWSK","name":"Skopje International Airport","city":"Skopje","country":"MK","lat":41.9616,"lon":21.6214,"elev":781,"type":"medium"},
  {"iata":"TIA","icao":"LATI","name":"Tirana Nene Tereza International Airport","city":"Tirana","country":"AL","lat":41.4147,"lon":19.7206,"elev":126,"type":"medium"},
  {"iata":"RIX","icao":"EVRA","name":"Riga International Airport","city":"Riga","country":"LV","lat":56.9236,"lon":23.9711,"elev":36,"type":"large"},
  {"iata":"TLL","icao":"EETN","name":"Lennart Meri Tallinn Airport","city":"Tallinn","country":"EE","lat":59.4133,"lon":24.8328,"elev":131,"type":"large"},
  {"iata":"VNO","icao":"EYVI","name":"Vilnius Airport","city":"Vilnius","country":"LT","lat":54.6341,"lon":25.2858,"elev":646,"type":"large"},
  {"iata":"SYD","icao":"YSSY","name":"Sydney Kingsford Smith Airport","city":"Sydney","country":"AU","lat":-33.9461,"lon":151.1772,"elev":21,"type":"large"},
  {"iata":"MEL","icao":"YMML","name":"Melbourne Airport","city":"Melbourne","country":"AU","lat":-37.6690,"lon":144.8410,"elev":434,"type":"large"},
  {"iata":"BNE","icao":"YBBN","name":"Brisbane Airport","city":"Brisbane","country":"AU","lat":-27.3842,"lon":153.1175,"elev":13,"type":"large"},
  {"iata":"PER","icao":"YPPH","name":"Perth Airport","city":"Perth","country":"AU","lat":-31.9403,"lon":115.9669,"elev":67,"type":"large"},
  {"iata":"ADL","icao":"YPAD","name":"Adelaide Airport","city":"Adelaide","country":"AU","lat":-34.9458,"lon":138.5308,"elev":20,"type":"large"},
  {"iata":"AKL","icao":"NZAA","name":"Auckland Airport","city":"Auckland","country":"NZ","lat":-37.0082,"lon":174.7917,"elev":23,"type":"large"},
  {"iata":"CHC","icao":"NZCH","name":"Christchurch International Airport","city":"Christchurch","country":"NZ","lat":-43.4894,"lon":172.5320,"elev":123,"type":"large"},
  {"iata":"WLG","icao":"NZWN","name":"Wellington Airport","city":"Wellington","country":"NZ","lat":-41.3272,"lon":174.8050,"elev":41,"type":"large"},
  {"iata":"GUM","icao":"PGUM","name":"Antonio B. Won Pat International Airport","city":"Hagatna","country":"GU","lat":13.4834,"lon":144.7960,"elev":298,"type":"large"},
  {"iata":"PPT","icao":"NTAA","name":"Faa'a International Airport","city":"Papeete","country":"PF","lat":-17.5537,"lon":-149.6066,"elev":5,"type":"large"},
  {"iata":"NAN","icao":"NFFN","name":"Nadi International Airport","city":"Nadi","country":"FJ","lat":-17.7554,"lon":177.4430,"elev":59,"type":"large"},
  {"iata":"HIR","icao":"AGGH","name":"Honiara International Airport","city":"Honiara","country":"SB","lat":-9.4280,"lon":160.0547,"elev":28,"type":"medium"},
  {"iata":"ADD","icao":"HAAB","name":"Bole International Airport","city":"Addis Ababa","country":"ET","lat":8.9778,"lon":38.7993,"elev":7625,"type":"large"},
  {"iata":"MBA","icao":"HKMO","name":"Mombasa Moi International Airport","city":"Mombasa","country":"KE","lat":-4.0348,"lon":39.5942,"elev":196,"type":"large"},
  {"iata":"ZNZ","icao":"HTZA","name":"Zanzibar International Airport","city":"Zanzibar","country":"TZ","lat":-6.2220,"lon":39.2249,"elev":54,"type":"medium"},
  {"iata":"KGL","icao":"HRYR","name":"Kigali International Airport","city":"Kigali","country":"RW","lat":-1.9686,"lon":30.1395,"elev":4859,"type":"large"},
  {"iata":"LFW","icao":"DXXX","name":"Lome-Tokoin International Airport","city":"Lome","country":"TG","lat":6.1656,"lon":1.2545,"elev":72,"type":"medium"},
  {"iata":"CKY","icao":"GUCY","name":"Conakry International Airport","city":"Conakry","country":"GN","lat":9.5769,"lon":-13.6120,"elev":72,"type":"large"},
  {"iata":"FNA","icao":"GFLL","name":"Lungi International Airport","city":"Freetown","country":"SL","lat":8.6164,"lon":-13.1955,"elev":84,"type":"large"},
  {"iata":"ROB","icao":"GLRB","name":"Roberts International Airport","city":"Monrovia","country":"LR","lat":6.2330,"lon":-10.3623,"elev":31,"type":"large"},
  {"iata":"JIB","icao":"HDAM","name":"Djibouti Ambouli International Airport","city":"Djibouti","country":"DJ","lat":11.5473,"lon":43.1595,"elev":49,"type":"large"},
  {"iata":"MGQ","icao":"HCMM","name":"Aden Adde International Airport","city":"Mogadishu","country":"SO","lat":2.0144,"lon":45.3047,"elev":29,"type":"medium"},
  {"iata":"ASM","icao":"HHAS","name":"Asmara International Airport","city":"Asmara","country":"ER","lat":15.2919,"lon":38.9107,"elev":7661,"type":"large"},
  {"iata":"KRT","icao":"HSSS","name":"Khartoum International Airport","city":"Khartoum","country":"SD","lat":15.5895,"lon":32.5532,"elev":1265,"type":"large"},
  {"iata":"TIP","icao":"HLLT","name":"Tripoli International Airport","city":"Tripoli","country":"LY","lat":32.6635,"lon":13.1590,"elev":263,"type":"large"},
  {"iata":"SYR","icao":"OSDI","name":"Damascus International Airport","city":"Damascus","country":"SY","lat":33.4115,"lon":36.5156,"elev":2020,"type":"large"},
  {"iata":"BGW","icao":"ORBI","name":"Baghdad International Airport","city":"Baghdad","country":"IQ","lat":33.2626,"lon":44.2346,"elev":114,"type":"large"},
  {"iata":"KBL","icao":"OAKB","name":"Hamid Karzai International Airport","city":"Kabul","country":"AF","lat":34.5659,"lon":69.2123,"elev":5877,"type":"large"},
  {"iata":"URC","icao":"ZWWW","name":"Urumqi Diwopu International Airport","city":"Urumqi","country":"CN","lat":43.9071,"lon":87.4742,"elev":2125,"type":"large"},
  {"iata":"LXA","icao":"ZULS","name":"Lhasa Gonggar Airport","city":"Lhasa","country":"CN","lat":29.2978,"lon":90.9119,"elev":11713,"type":"large"},
  {"iata":"CKG","icao":"ZUCK","name":"Chongqing Jiangbei International Airport","city":"Chongqing","country":"CN","lat":29.7192,"lon":106.6417,"elev":1365,"type":"large"},
  {"iata":"XMN","icao":"ZSAM","name":"Xiamen Gaoqi International Airport","city":"Xiamen","country":"CN","lat":24.5440,"lon":118.1277,"elev":59,"type":"large"},
  {"iata":"FOC","icao":"ZSFZ","name":"Fuzhou Changle International Airport","city":"Fuzhou","country":"CN","lat":25.9353,"lon":119.6631,"elev":46,"type":"large"},
  {"iata":"NNG","icao":"ZGNN","name":"Nanning Wuxu International Airport","city":"Nanning","country":"CN","lat":22.6083,"lon":108.1722,"elev":421,"type":"large"},
  {"iata":"HAK","icao":"ZJHK","name":"Haikou Meilan International Airport","city":"Haikou","country":"CN","lat":19.9349,"lon":110.4589,"elev":75,"type":"large"},
  {"iata":"SYX","icao":"ZJSY","name":"Sanya Phoenix International Airport","city":"Sanya","country":"CN","lat":18.3029,"lon":109.4122,"elev":92,"type":"large"},
  {"iata":"TYN","icao":"ZBYN","name":"Taiyuan Wusu International Airport","city":"Taiyuan","country":"CN","lat":37.7469,"lon":112.6283,"elev":2575,"type":"large"},
  {"iata":"HET","icao":"ZBHH","name":"Hohhot Baita International Airport","city":"Hohhot","country":"CN","lat":40.8514,"lon":111.8241,"elev":3556,"type":"large"},
  {"iata":"ULN","icao":"ZMUB","name":"Chinggis Khaan International Airport","city":"Ulaanbaatar","country":"MN","lat":47.8431,"lon":106.7666,"elev":4364,"type":"large"},
  {"iata":"RGN","icao":"VYYY","name":"Yangon International Airport","city":"Yangon","country":"MM","lat":16.9073,"lon":96.1332,"elev":109,"type":"large"},
  {"iata":"VGO","icao":"LEVX","name":"Vigo Airport","city":"Vigo","country":"ES","lat":42.2318,"lon":-8.6277,"elev":856,"type":"medium"},
  {"iata":"GVA","icao":"LSGG","name":"Geneva Airport","city":"Geneva","country":"CH","lat":46.2380,"lon":6.1089,"elev":1411,"type":"large"},
  {"iata":"LUX","icao":"ELLX","name":"Luxembourg Findel Airport","city":"Luxembourg","country":"LU","lat":49.6234,"lon":6.2044,"elev":1234,"type":"large"},
  {"iata":"DUB","icao":"EIDW","name":"Dublin Airport","city":"Dublin","country":"IE","lat":53.4213,"lon":-6.2701,"elev":242,"type":"large"},
  {"iata":"SNN","icao":"EINN","name":"Shannon Airport","city":"Shannon","country":"IE","lat":52.7020,"lon":-8.9248,"elev":46,"type":"large"},
  {"iata":"KEF","icao":"BIKF","name":"Keflavik International Airport","city":"Reykjavik","country":"IS","lat":63.9850,"lon":-22.6056,"elev":171,"type":"large"},
  {"iata":"BGO","icao":"ENBR","name":"Bergen Flesland Airport","city":"Bergen","country":"NO","lat":60.2934,"lon":5.2181,"elev":170,"type":"large"},
  {"iata":"TRD","icao":"ENVA","name":"Trondheim Vaernes Airport","city":"Trondheim","country":"NO","lat":63.4578,"lon":10.9260,"elev":56,"type":"large"},
  {"iata":"GOT","icao":"ESGG","name":"Gothenburg Landvetter Airport","city":"Gothenburg","country":"SE","lat":57.6628,"lon":12.2798,"elev":506,"type":"large"},
  {"iata":"MMX","icao":"ESMS","name":"Malmo Airport","city":"Malmo","country":"SE","lat":55.5363,"lon":13.3762,"elev":236,"type":"large"},
  {"iata":"TMP","icao":"EFTP","name":"Tampere-Pirkkala Airport","city":"Tampere","country":"FI","lat":61.4142,"lon":23.6044,"elev":390,"type":"medium"},
  {"iata":"OUL","icao":"EFOU","name":"Oulu Airport","city":"Oulu","country":"FI","lat":64.9301,"lon":25.3546,"elev":47,"type":"medium"},
  {"iata":"TBS","icao":"UGTB","name":"Tbilisi International Airport","city":"Tbilisi","country":"GE","lat":41.6692,"lon":44.9547,"elev":1624,"type":"large"},
  {"iata":"GYD","icao":"UBBB","name":"Heydar Aliyev International Airport","city":"Baku","country":"AZ","lat":40.4675,"lon":50.0467,"elev":10,"type":"large"},
  {"iata":"ASB","icao":"UTAA","name":"Ashgabat International Airport","city":"Ashgabat","country":"TM","lat":37.9868,"lon":58.3610,"elev":692,"type":"large"},
  {"iata":"DYU","icao":"UTDD","name":"Dushanbe Airport","city":"Dushanbe","country":"TJ","lat":38.5433,"lon":68.7750,"elev":2575,"type":"large"},
  {"iata":"FRU","icao":"UAFM","name":"Manas International Airport","city":"Bishkek","country":"KG","lat":43.0613,"lon":74.4776,"elev":2058,"type":"large"},
  {"iata":"LPQ","icao":"VLLB","name":"Luang Prabang International Airport","city":"Luang Prabang","country":"LA","lat":19.8972,"lon":102.1608,"elev":955,"type":"medium"},
  {"iata":"REP","icao":"VDSR","name":"Siem Reap International Airport","city":"Siem Reap","country":"KH","lat":13.4107,"lon":103.8129,"elev":60,"type":"medium"},
  {"iata":"DAD","icao":"VVDN","name":"Da Nang International Airport","city":"Da Nang","country":"VN","lat":16.0439,"lon":108.1993,"elev":33,"type":"large"},
  {"iata":"CXR","icao":"VVCR","name":"Cam Ranh International Airport","city":"Nha Trang","country":"VN","lat":11.9982,"lon":109.2194,"elev":40,"type":"large"},
  {"iata":"PQC","icao":"VVPQ","name":"Phu Quoc International Airport","city":"Phu Quoc","country":"VN","lat":10.2270,"lon":103.9670,"elev":33,"type":"large"},
  {"iata":"LGK","icao":"WMKL","name":"Langkawi International Airport","city":"Langkawi","country":"MY","lat":6.3297,"lon":99.7287,"elev":29,"type":"large"},
  {"iata":"PEN","icao":"WMKP","name":"Penang International Airport","city":"Penang","country":"MY","lat":5.2972,"lon":100.2769,"elev":11,"type":"large"},
  {"iata":"BKI","icao":"WBKK","name":"Kota Kinabalu International Airport","city":"Kota Kinabalu","country":"MY","lat":5.9372,"lon":116.0508,"elev":10,"type":"large"},
  {"iata":"BTH","icao":"WIDD","name":"Hang Nadim International Airport","city":"Batam","country":"ID","lat":1.1212,"lon":104.1192,"elev":126,"type":"large"},
  {"iata":"UPG","icao":"WAAA","name":"Sultan Hasanuddin International Airport","city":"Makassar","country":"ID","lat":-5.0617,"lon":119.5544,"elev":47,"type":"large"},
  {"iata":"SUB","icao":"WARR","name":"Juanda International Airport","city":"Surabaya","country":"ID","lat":-7.3798,"lon":112.7869,"elev":9,"type":"large"},
  {"iata":"MDC","icao":"WAMM","name":"Sam Ratulangi International Airport","city":"Manado","country":"ID","lat":1.5493,"lon":124.9260,"elev":264,"type":"large"},
  {"iata":"MLG","icao":"WARA","name":"Abdul Rachman Saleh Airport","city":"Malang","country":"ID","lat":-7.9266,"lon":112.7145,"elev":1726,"type":"medium"},
  {"iata":"CEB","icao":"RPVM","name":"Mactan-Cebu International Airport","city":"Cebu","country":"PH","lat":10.3075,"lon":123.9790,"elev":31,"type":"large"},
  {"iata":"DVO","icao":"RPMD","name":"Francisco Bangoy International Airport","city":"Davao","country":"PH","lat":7.1255,"lon":125.6458,"elev":96,"type":"large"},
  {"iata":"ITO","icao":"PHTO","name":"Hilo International Airport","city":"Hilo","country":"US","lat":19.7214,"lon":-155.0485,"elev":38,"type":"medium"},
  {"iata":"GEO","icao":"SYCJ","name":"Cheddi Jagan International Airport","city":"Georgetown","country":"GY","lat":6.4985,"lon":-58.2541,"elev":95,"type":"large"},
  {"iata":"PBM","icao":"SMJP","name":"Johan Adolf Pengel International Airport","city":"Paramaribo","country":"SR","lat":5.4528,"lon":-55.1878,"elev":59,"type":"large"},
  {"iata":"CAY","icao":"SOCA","name":"Cayenne Felix Eboue Airport","city":"Cayenne","country":"GF","lat":4.8198,"lon":-52.3604,"elev":26,"type":"large"},
  {"iata":"PAP","icao":"MTPP","name":"Toussaint Louverture International Airport","city":"Port-au-Prince","country":"HT","lat":18.5799,"lon":-72.2926,"elev":122,"type":"large"},
  {"iata":"SDQ","icao":"MDSD","name":"Las Americas International Airport","city":"Santo Domingo","country":"DO","lat":18.4297,"lon":-69.6689,"elev":59,"type":"large"},
  {"iata":"SJU","icao":"TJSJ","name":"Luis Munoz Marin International Airport","city":"San Juan","country":"PR","lat":18.4394,"lon":-66.0018,"elev":9,"type":"large"},
  {"iata":"HAV","icao":"MUHA","name":"Jose Marti International Airport","city":"Havana","country":"CU","lat":22.9892,"lon":-82.4091,"elev":210,"type":"large"},
  {"iata":"MBJ","icao":"MKJS","name":"Sangster International Airport","city":"Montego Bay","country":"JM","lat":18.5037,"lon":-77.9134,"elev":4,"type":"large"},
  {"iata":"NAS","icao":"MYNN","name":"Lynden Pindling International Airport","city":"Nassau","country":"BS","lat":25.0390,"lon":-77.4662,"elev":16,"type":"large"},
  {"iata":"POS","icao":"TTPP","name":"Piarco International Airport","city":"Port of Spain","country":"TT","lat":10.5954,"lon":-61.3372,"elev":58,"type":"large"},
  {"iata":"GEO","icao":"SYCJ","name":"Cheddi Jagan International Airport","city":"Georgetown","country":"GY","lat":6.4985,"lon":-58.2541,"elev":95,"type":"large"},
  {"iata":"SAL","icao":"MSLP","name":"Monsenor Oscar Arnulfo Romero International Airport","city":"San Salvador","country":"SV","lat":13.4409,"lon":-89.0557,"elev":101,"type":"large"},
  {"iata":"GUA","icao":"MGGT","name":"La Aurora International Airport","city":"Guatemala City","country":"GT","lat":14.5833,"lon":-90.5270,"elev":4952,"type":"large"},
  {"iata":"TGU","icao":"MHTG","name":"Toncontin International Airport","city":"Tegucigalpa","country":"HN","lat":14.0608,"lon":-87.2172,"elev":3294,"type":"large"},
  {"iata":"MGA","icao":"MNMG","name":"Augusto C. Sandino International Airport","city":"Managua","country":"NI","lat":12.1415,"lon":-86.1682,"elev":194,"type":"large"},
  {"iata":"SJO","icao":"MROC","name":"Juan Santamaria International Airport","city":"San Jose","country":"CR","lat":9.9939,"lon":-84.2088,"elev":3021,"type":"large"},
  {"iata":"PTY","icao":"MPTO","name":"Tocumen International Airport","city":"Panama City","country":"PA","lat":9.0714,"lon":-79.3835,"elev":135,"type":"large"},
  {"iata":"LPB","icao":"SLLP","name":"El Alto International Airport","city":"La Paz","country":"BO","lat":-16.5133,"lon":-68.1922,"elev":13313,"type":"large"},
  {"iata":"VVI","icao":"SLVR","name":"Viru Viru International Airport","city":"Santa Cruz de la Sierra","country":"BO","lat":-17.6448,"lon":-63.1354,"elev":1227,"type":"large"},
  {"iata":"ASU","icao":"SGAS","name":"Silvio Pettirossi International Airport","city":"Asuncion","country":"PY","lat":-25.2400,"lon":-57.5190,"elev":292,"type":"large"},
  {"iata":"MVD","icao":"SUMU","name":"Carrasco International Airport","city":"Montevideo","country":"UY","lat":-34.8384,"lon":-56.0308,"elev":105,"type":"large"},
  {"iata":"PMC","icao":"SCTE","name":"El Tepual International Airport","city":"Puerto Montt","country":"CL","lat":-41.4389,"lon":-73.0940,"elev":294,"type":"large"},
  {"iata":"IQQ","icao":"SCDA","name":"Diego Aracena International Airport","city":"Iquique","country":"CL","lat":-20.5353,"lon":-70.1809,"elev":155,"type":"large"},
  {"iata":"BEL","icao":"SBBE","name":"Val de Caes International Airport","city":"Belem","country":"BR","lat":-1.3793,"lon":-48.4763,"elev":54,"type":"large"},
  {"iata":"MAO","icao":"SBEG","name":"Eduardo Gomes International Airport","city":"Manaus","country":"BR","lat":-3.0386,"lon":-60.0499,"elev":264,"type":"large"},
  {"iata":"SSA","icao":"SBSV","name":"Deputado Luis Eduardo Magalhaes International Airport","city":"Salvador","country":"BR","lat":-12.9086,"lon":-38.3224,"elev":64,"type":"large"},
  {"iata":"CWB","icao":"SBCT","name":"Afonso Pena International Airport","city":"Curitiba","country":"BR","lat":-25.5285,"lon":-49.1758,"elev":2988,"type":"large"},
  {"iata":"POA","icao":"SBPA","name":"Salgado Filho International Airport","city":"Porto Alegre","country":"BR","lat":-29.9944,"lon":-51.1714,"elev":11,"type":"large"},
  {"iata":"FLN","icao":"SBFL","name":"Hercilio Luz International Airport","city":"Florianopolis","country":"BR","lat":-27.6703,"lon":-48.5522,"elev":20,"type":"large"},
  {"iata":"NAT","icao":"SBNT","name":"Governador Aluizio Alves International Airport","city":"Natal","country":"BR","lat":-5.7682,"lon":-35.3764,"elev":561,"type":"large"},
  {"iata":"BHZ","icao":"SBCF","name":"Tancredo Neves International Airport","city":"Belo Horizonte","country":"BR","lat":-19.6244,"lon":-43.9719,"elev":2715,"type":"large"},
  {"iata":"CLO","icao":"SKCL","name":"Alfonso Bonilla Aragon International Airport","city":"Cali","country":"CO","lat":3.5432,"lon":-76.3816,"elev":3162,"type":"large"},
  {"iata":"MDE","icao":"SKRG","name":"Jose Maria Cordova International Airport","city":"Medellin","country":"CO","lat":6.1646,"lon":-75.4231,"elev":6955,"type":"large"},
  {"iata":"CTG","icao":"SKCG","name":"Rafael Nunez International Airport","city":"Cartagena","country":"CO","lat":10.4424,"lon":-75.5130,"elev":4,"type":"large"},
  {"iata":"IZT","icao":"MMIT","name":"Ixtepec Airport","city":"Ixtepec","country":"MX","lat":16.4493,"lon":-95.0937,"elev":164,"type":"medium"},
  {"iata":"ACA","icao":"MMAA","name":"Juan N. Alvarez International Airport","city":"Acapulco","country":"MX","lat":16.7571,"lon":-99.7540,"elev":16,"type":"large"},
  {"iata":"MID","icao":"MMMD","name":"Manuel Crescencio Rejon International Airport","city":"Merida","country":"MX","lat":20.9370,"lon":-89.6577,"elev":38,"type":"large"},
  {"iata":"ZIH","icao":"MMZH","name":"Ixtapa-Zihuatanejo International Airport","city":"Zihuatanejo","country":"MX","lat":17.6016,"lon":-101.4605,"elev":26,"type":"large"},
  {"iata":"PVR","icao":"MMPR","name":"Licenciado Gustavo Diaz Ordaz International Airport","city":"Puerto Vallarta","country":"MX","lat":20.6801,"lon":-105.2540,"elev":23,"type":"large"},
  {"iata":"OAX","icao":"MMOX","name":"Xoxocotlan International Airport","city":"Oaxaca","country":"MX","lat":16.9999,"lon":-96.7260,"elev":5018,"type":"large"},
  {"iata":"VER","icao":"MMVR","name":"General Heriberto Jara International Airport","city":"Veracruz","country":"MX","lat":19.1459,"lon":-96.1873,"elev":90,"type":"large"},
  {"iata":"CPQ","icao":"SDAM","name":"Viracopos International Airport","city":"Campinas","country":"BR","lat":-23.0074,"lon":-47.1345,"elev":2170,"type":"large"},
  {"iata":"MCP","icao":"SBMQ","name":"Alberto Alcolumbre International Airport","city":"Macapa","country":"BR","lat":0.0507,"lon":-51.0722,"elev":56,"type":"large"},
  {"iata":"PMW","icao":"SBPJ","name":"Brigadeiro Lysias Rodrigues Airport","city":"Palmas","country":"BR","lat":-10.2915,"lon":-48.3569,"elev":774,"type":"medium"},
  {"iata":"GYN","icao":"SBGO","name":"Santa Genoveva Airport","city":"Goiania","country":"BR","lat":-16.6320,"lon":-49.2207,"elev":2450,"type":"large"},
  {"iata":"CGB","icao":"SBCY","name":"Marechal Rondon International Airport","city":"Cuiaba","country":"BR","lat":-15.6530,"lon":-56.1167,"elev":617,"type":"large"},
  {"iata":"PFB","icao":"SBPF","name":"Lauro Kurtz International Airport","city":"Passo Fundo","country":"BR","lat":-28.2440,"lon":-52.3266,"elev":2376,"type":"medium"},
  {"iata":"XNN","icao":"ZLXN","name":"Xining Caojiabu Airport","city":"Xining","country":"CN","lat":36.5275,"lon":102.0430,"elev":7119,"type":"large"},
  {"iata":"INC","icao":"ZLIC","name":"Yinchuan Hedong International Airport","city":"Yinchuan","country":"CN","lat":38.3219,"lon":106.3093,"elev":3782,"type":"large"},
  {"iata":"LZO","icao":"ZULZ","name":"Luzhou Yunlong Airport","city":"Luzhou","country":"CN","lat":28.8522,"lon":105.3931,"elev":1099,"type":"medium"},
  {"iata":"WNZ","icao":"ZSWZ","name":"Wenzhou Longwan International Airport","city":"Wenzhou","country":"CN","lat":27.9122,"lon":120.8522,"elev":23,"type":"large"},
  {"iata":"NTG","icao":"ZSNT","name":"Nantong Xinsheng Airport","city":"Nantong","country":"CN","lat":32.0708,"lon":120.9759,"elev":16,"type":"medium"},
  {"iata":"YNZ","icao":"ZSYN","name":"Yancheng Nanyang Airport","city":"Yancheng","country":"CN","lat":33.4258,"lon":120.2030,"elev":23,"type":"medium"},
  {"iata":"YTY","icao":"ZSYA","name":"Yangzhou Taizhou Airport","city":"Yangzhou","country":"CN","lat":32.5634,"lon":119.7197,"elev":16,"type":"medium"},
  {"iata":"LYG","icao":"ZSLG","name":"Lianyungang Baitabu Airport","city":"Lianyungang","country":"CN","lat":34.5713,"lon":118.8729,"elev":26,"type":"medium"},
  {"iata":"TAO","icao":"ZSQD","name":"Qingdao Jiaodong International Airport","city":"Qingdao","country":"CN","lat":36.3621,"lon":120.0832,"elev":26,"type":"large"},
  {"iata":"JNA","icao":"SBJN","name":"Januaria Airport","city":"Januaria","country":"BR","lat":-15.4679,"lon":-44.3862,"elev":1575,"type":"medium"},
  {"iata":"SHE","icao":"ZYSHE","name":"Shenyang Taoxian International Airport","city":"Shenyang","country":"CN","lat":41.6398,"lon":123.4835,"elev":198,"type":"large"},
  {"iata":"DLC","icao":"ZYTL","name":"Dalian Zhoushuizi International Airport","city":"Dalian","country":"CN","lat":38.9657,"lon":121.5386,"elev":107,"type":"large"},
  {"iata":"LHW","icao":"ZLLL","name":"Lanzhou Zhongchuan International Airport","city":"Lanzhou","country":"CN","lat":36.5152,"lon":103.6201,"elev":6388,"type":"large"},
  {"iata":"GHN","icao":"ZGGG","name":"Guanghan Airport","city":"Guanghan","country":"CN","lat":30.9461,"lon":104.3283,"elev":1549,"type":"medium"}
]
